{
"buildings":{"4NqNXGqU9iItZaVg3V2h":{"is_library":false,"is_reshall":false,"name":"Strickland Hall","id":"4NqNXGqU9iItZaVg3V2h","address":{"country":"United States","city":"Columbia","street":"805 Rollins St","state":"MO","zip_code":"65211"},"coordinates":{"__datatype__":"geopoint","value":{"_latitude":38.94252401635526,"_longitude":-92.32801816136161}},"site_group":"zw1TFIf7KQxMNrThdfD1","__collections__":{}},"7CsAQM7lBVlIVgLzZU4g":{"is_library":true,"is_reshall":false,"coordinates":{"__datatype__":"geopoint","value":{"_latitude":38.944782,"_longitude":-92.3274335}},"name":"Ellis Library","id":"7CsAQM7lBVlIVgLzZU4g","address":{"country":"United States","city":"Columbia","street":"520 S 9th St","state":"MO","zip_code":"65211"},"site_group":"kxeYimfnOx1YnB9TVXp9","__collections__":{}},"8waBVgpwD5Itgnh2Yy2t":{"is_library":false,"is_reshall":true,"name":"Johnston","coordinates":{"__datatype__":"geopoint","value":{"_latitude":38.941897367516134,"_longitude":-92.32441821816413}},"id":"8waBVgpwD5Itgnh2Yy2t","site_group":"CgLht1pwcSdyDe7tJWVN","address":{"country":"United States","city":"Columbia","state":"MO","zip_code":"65201","street":"1100 Rollins St"},"__collections__":{}},"DF7ttcIRDEC6xHceXd2u":{"is_library":false,"is_reshall":false,"site_group":"gkRTxs7OyARmxGHHPuMV","address":{"country":"United States","city":"Columbia","street":"411 S 6th St","state":"MO","zip_code":"65201"},"coordinates":{"__datatype__":"geopoint","value":{"_latitude":38.946551,"_longitude":-92.331178}},"id":"DF7ttcIRDEC6xHceXd2u","name":"Naka Hall (Engineering Building West)","__collections__":{}},"LjlX6tH8SiMv4ZrnTj0S":{"is_library":true,"is_reshall":true,"name":"Student Center","id":"LjlX6tH8SiMv4ZrnTj0S","address":{"city":"Columbia","country":"United States","state":"MO","street":"S4 Memorial Union","zip_code":"65211"},"coordinates":{"__datatype__":"geopoint","value":{"_latitude":38.94506194965972,"_longitude":-92.3253738022579}},"site_group":"zw1TFIf7KQxMNrThdfD1","__collections__":{}},"ME60RJ1xxe405p2soNo3":{"is_reshall":true,"name":"Brooks","is_library":false,"id":"ME60RJ1xxe405p2soNo3","address":{"city":"Columbia","country":"United States","street":"1007 Tiger Ave","zip_code":"65201","state":"MO"},"coordinates":{"__datatype__":"geopoint","value":{"_latitude":38.938562368549,"_longitude":-92.33198977763207}},"site_group":"LM0MN0spXlHfd2oZSahO","__collections__":{}},"NJvv56YmKgq1pYnATtBK":{"address":{"country":"United States","city":"Columbia","street":"uuid","state":"MO","zip_code":"uuid"},"is_library":false,"is_reshall":true,"coordinates":{"__datatype__":"geopoint","value":{"_latitude":0,"_longitude":0}},"id":"NJvv56YmKgq1pYnATtBK","name":"Lafferre Hall","site_group":"gkRTxs7OyARmxGHHPuMV","__collections__":{}},"NKfa2fZH83HX5LNnXyfh":{"is_library":false,"is_reshall":true,"coordinates":{"__datatype__":"geopoint","value":{"_latitude":0,"_longitude":0}},"name":"Rollins Hall","id":"NKfa2fZH83HX5LNnXyfh","address":{"city":"Columbia","country":"United States","state":"MO","street":"901 E. Rollins","zip_code":"65201"},"site_group":"CgLht1pwcSdyDe7tJWVN","__collections__":{}},"OcMzHSE1L1urLvGiaPBV":{"is_library":false,"is_reshall":true,"coordinates":{"__datatype__":"geopoint","value":{"_latitude":38.9452474,"_longitude":-92.3251126}},"name":"Bingham Hall","id":"OcMzHSE1L1urLvGiaPBV","address":{"country":"United States","city":"Columbia","street":"902 S College Ave","state":"MO","zip_code":"65211"},"site_group":"LM0MN0spXlHfd2oZSahO","__collections__":{}},"SvK0cIKPNTGCReVCw7Ln":{"is_library":false,"is_reshall":false,"coordinates":{"__datatype__":"geopoint","value":{"_latitude":38.943855,"_longitude":-92.334316}},"name":"Clark Hall","id":"SvK0cIKPNTGCReVCw7Ln","address":{"country":"United States","city":"Columbia","street":"700 S Providence Rd","state":"MO","zip_code":"65211"},"site_group":"gkRTxs7OyARmxGHHPuMV","__collections__":{}},"VYUlFVzdSeVTBkNuPQWT":{"coordinates":{"__datatype__":"geopoint","value":{"_latitude":38.94337,"_longitude":-92.32733}},"id":"VYUlFVzdSeVTBkNuPQWT","is_library":false,"is_reshall":false,"name":"Arts & Science","address":{"country":"United States","city":"Columbia","state":"MO","street":"902 Conley Ave","zip_code":"65201"},"site_group":"zw1TFIf7KQxMNrThdfD1","__collections__":{}},"ZkVwBzGWtw9I3sTQ8vVS":{"is_library":false,"is_reshall":false,"name":"Memorial Union","id":"ZkVwBzGWtw9I3sTQ8vVS","coordinates":{"__datatype__":"geopoint","value":{"_latitude":38.9452474,"_longitude":-92.3251126}},"address":{"country":"United States","city":"Columbia","street":"518 Hitt St","state":"MO","zip_code":"65211"},"site_group":"kxeYimfnOx1YnB9TVXp9","__collections__":{}},"akjyNZ33dPoMRn3BA6Mb":{"is_library":false,"is_reshall":true,"name":"Bluford Hall","id":"akjyNZ33dPoMRn3BA6Mb","address":{"city":"Columbia","country":"United States","state":"MO","street":"502 Kentucky Blvd","zip_code":"65211"},"coordinates":{"__datatype__":"geopoint","value":{"_latitude":38.93905289963387,"_longitude":-92.33186704312983}},"site_group":"LM0MN0spXlHfd2oZSahO","__collections__":{}},"ctGrZJA7s8d0YJnv13vW":{"address":{"country":"United States","city":"Columbia","street":"902 Virginia Ave","state":"MO","zip_code":"65201"},"is_library":false,"is_reshall":true,"coordinates":{"__datatype__":"geopoint","value":{"_latitude":38.940125829742904,"_longitude":-92.32329031791897}},"name":"Respect","id":"ctGrZJA7s8d0YJnv13vW","site_group":"CgLht1pwcSdyDe7tJWVN","__collections__":{}},"joyisjePdOpmdxFILUSr":{"is_library":false,"is_reshall":false,"name":"Middlebush Hall","id":"joyisjePdOpmdxFILUSr","coordinates":{"__datatype__":"geopoint","value":{"_latitude":38.946182,"_longitude":-92.326927}},"address":{"country":"United States","city":"Columbia","street":"900 University Ave","state":"MO","zip_code":"65211"},"site_group":"kxeYimfnOx1YnB9TVXp9","__collections__":{}},"kJFhgFSEa6YiyPn4ajVT":{"address":{"country":"United States","city":"Columbia","street":"530 Hitt St","state":"MO","zip_code":"65201"},"coordinates":{"__datatype__":"geopoint","value":{"_latitude":38.9445706,"_longitude":-92.3240992}},"id":"kJFhgFSEa6YiyPn4ajVT","is_library":false,"is_reshall":false,"name":"Stanley","site_group":"kxeYimfnOx1YnB9TVXp9","__collections__":{}},"l6wbDKWVK59CUIY1kOIK":{"address":{"country":"United States","city":"Columbia","state":"MO","zip_code":"65201","street":"515 S 5th St"},"coordinates":{"__datatype__":"geopoint","value":{"_latitude":38.94510311349745,"_longitude":-92.33251002361408}},"id":"l6wbDKWVK59CUIY1kOIK","is_library":false,"is_reshall":true,"name":"Mark Twain","site_group":"gkRTxs7OyARmxGHHPuMV","__collections__":{}},"mdNyExBsLeRUDJJAGOac":{"address":{"country":"United States","city":"Columbia","street":"1000 Virginia Ave","state":"MO","zip_code":"65201"},"is_library":false,"is_reshall":true,"name":"Gateway","id":"mdNyExBsLeRUDJJAGOac","site_group":"CgLht1pwcSdyDe7tJWVN","coordinates":{"__datatype__":"geopoint","value":{"_latitude":38.938593980392554,"_longitude":-92.32258559612896}},"__collections__":{}},"sRoIv6n4yGwICzNWEbyx":{"is_library":false,"is_reshall":true,"name":"Wolpers Hall","id":"sRoIv6n4yGwICzNWEbyx","address":{"city":"Columbia","country":"United States","state":"MO","street":"800 Hitt St.","zip_code":"65201"},"coordinates":{"__datatype__":"geopoint","value":{"_latitude":38.94154563614645,"_longitude":-92.32508029695106}},"site_group":"CgLht1pwcSdyDe7tJWVN","__collections__":{}},"vefZkRvjBxS1H1vSzR60":{"is_library":false,"is_reshall":false,"coordinates":{"__datatype__":"geopoint","value":{"_latitude":38.943855,"_longitude":-92.334316}},"id":"vefZkRvjBxS1H1vSzR60","name":"Physics","address":{"country":"United States","city":"Columbia","street":"701 S College Ave","state":"MO","zip_code":"65211"},"site_group":"kxeYimfnOx1YnB9TVXp9","__collections__":{}},"yXT87CrCZCoJVRvZn5DC":{"is_library":false,"is_reshall":false,"name":"Black Culture Center","id":"yXT87CrCZCoJVRvZn5DC","address":{"country":"United States","city":"Columbia","street":"813 Virginia Ave","state":"MO","zip_code":"65211"},"coordinates":{"__datatype__":"geopoint","value":{"_latitude":38.94117536723405,"_longitude":-92.32411626712752}},"site_group":"zw1TFIf7KQxMNrThdfD1","__collections__":{}},"zzcMmHRixHbEMvFv24l2":{"is_library":false,"is_reshall":false,"coordinates":{"__datatype__":"geopoint","value":{"_latitude":38.94285,"_longitude":-92.32964}},"name":"Cornell Hall","id":"zzcMmHRixHbEMvFv24l2","address":{"country":"United States","city":"Columbia","street":"700 Tiger Ave","state":"MO","zip_code":"65211"},"site_group":"zw1TFIf7KQxMNrThdfD1","__collections__":{}}}
}